[
  {
    "id": 1,
    "title": "Прорив труби на вул. Центральній",
    "category": "Комунальна аварія",
    "severity": 4,
    "createdAt": "2025-10-17T10:30:00Z",
    "location": { "lat": 50.4501, "lng": 30.5234 },
    "description": "Стався прорив магістральної труби холодного водопостачання. Рух транспорту частково обмежено."
  },
  {
    "id": 2,
    "title": "ДТП на перехресті",
    "category": "ДТП",
    "severity": 3,
    "createdAt": "2025-10-16T18:45:00Z",
    "location": { "lat": 50.455, "lng": 30.515 },
    "description": "Зіткнення двох легкових автомобілів. Постраждалих немає, але утворився великий затор."
  },
  {
    "id": 3,
    "title": "Пожежа у складському приміщенні",
    "category": "Пожежа",
    "severity": 5,
    "createdAt": "2025-10-17T02:15:00Z",
    "location": { "lat": 50.44, "lng": 30.54 },
    "description": "Загоряння на складі побутової хімії. На місці працюють 5 пожежних розрахунків."
  },
  {
    "id": 4,
    "title": "Акт вандалізму в парку",
    "category": "Вандалізм",
    "severity": 2,
    "createdAt": "2025-10-15T22:00:00Z",
    "location": { "lat": 50.46, "lng": 30.53 },
    "description": "Невідомі пошкодили лавки та сміттєві урни в центральному парку."
  },
  {
    "id": 5,
    "title": "Знеструмлення житлового кварталу",
    "category": "Енергопостачання",
    "severity": 3,
    "createdAt": "2025-10-17T06:45:00Z",
    "location": { "lat": 50.4472, "lng": 30.525 },
    "description": "Без електроенергії залишились кілька будинків через аварію на підстанції. Роботи тривають."
  },
  {
    "id": 6,
    "title": "Падіння дерева на проїжджу частину",
    "category": "Перешкода на дорозі",
    "severity": 2,
    "createdAt": "2025-10-17T08:10:00Z",
    "location": { "lat": 50.4565, "lng": 30.5285 },
    "description": "Внаслідок сильного вітру дерево впало на дорогу, рух ускладнено в одному напрямку."
  },
  {
    "id": 7,
    "title": "Витік газу в житловому будинку",
    "category": "Газова аварія",
    "severity": 5,
    "createdAt": "2025-10-17T09:20:00Z",
    "location": { "lat": 50.451, "lng": 30.5123 },
    "description": "Мешканці повідомили про різкий запах газу. Будинок евакуйовано, працюють служби."
  },
  {
    "id": 8,
    "title": "Пожежа у приватному будинку",
    "category": "Пожежа",
    "severity": 4,
    "createdAt": "2025-10-16T23:55:00Z",
    "location": { "lat": 50.438, "lng": 30.5375 },
    "description": "Займання сталося на кухні, пожежу ліквідовано до прибуття основних сил. Постраждалих немає."
  },
  {
    "id": 9,
    "title": "Затор через дорожні роботи",
    "category": "Транспорт",
    "severity": 2,
    "createdAt": "2025-10-17T07:15:00Z",
    "location": { "lat": 50.453, "lng": 30.519 },
    "description": "Через ремонт асфальтного покриття рух транспорту обмежено до однієї смуги."
  },
  {
    "id": 10,
    "title": "Поломка трамвая на маршруті №3",
    "category": "Громадський транспорт",
    "severity": 2,
    "createdAt": "2025-10-17T05:50:00Z",
    "location": { "lat": 50.4495, "lng": 30.5182 },
    "description": "Трамвай зупинився посеред маршруту. Рух тимчасово призупинено, працює технічна служба."
  },
  {
    "id": 11,
    "title": "Масове відключення інтернету",
    "category": "Зв'язок",
    "severity": 3,
    "createdAt": "2025-10-17T09:00:00Z",
    "location": { "lat": 50.4605, "lng": 30.5275 },
    "description": "У центральній частині міста зафіксовано перебої з інтернет-з’єднанням кількох провайдерів."
  },
  {
    "id": 12,
    "title": "Загроза підтоплення після зливи",
    "category": "Погодні умови",
    "severity": 4,
    "createdAt": "2025-10-16T20:30:00Z",
    "location": { "lat": 50.4422, "lng": 30.5244 },
    "description": "Внаслідок сильної зливи можливе підтоплення низинних районів. Служби чергують у посиленому режимі."
  },
  {
    "id": 13,
    "title": "Знайдено підозрілий пакет біля ТЦ",
    "category": "Безпека",
    "severity": 4,
    "createdAt": "2025-10-17T11:10:00Z",
    "location": { "lat": 50.4552, "lng": 30.532 },
    "description": "Територію навколо торгового центру тимчасово перекрито. Працюють вибухотехніки."
  },
  {
    "id": 14,
    "title": "Несправність світлофорів",
    "category": "Транспорт",
    "severity": 2,
    "createdAt": "2025-10-17T06:00:00Z",
    "location": { "lat": 50.4488, "lng": 30.5203 },
    "description": "Світлофори на перехресті не працюють через збої живлення. Рух регулюють поліцейські."
  },
  {
    "id": 15,
    "title": "Провал асфальту на дорозі",
    "category": "Комунальна аварія",
    "severity": 3,
    "createdAt": "2025-10-17T03:40:00Z",
    "location": { "lat": 50.4525, "lng": 30.5265 },
    "description": "На ділянці дороги утворилась яма діаметром близько 2 метрів. Рух частково обмежено."
  },
  {
    "id": 16,
    "title": "Непрацюючі ліфти у багатоповерхівці",
    "category": "Комунальна послуга",
    "severity": 2,
    "createdAt": "2025-10-16T21:30:00Z",
    "location": { "lat": 50.457, "lng": 30.5222 },
    "description": "Через перебої з електроживленням ліфти у трьох під'їздах тимчасово зупинені."
  },
  {
    "id": 17,
    "title": "Зникнення дитини у районі Оболонь",
    "category": "Пошук людей",
    "severity": 5,
    "createdAt": "2025-10-17T11:25:00Z",
    "location": { "lat": 50.505, "lng": 30.497 },
    "description": "Поліція розшукує 8-річну дитину, яка вийшла з дому та не повернулась. Проводяться пошукові дії."
  },
  {
    "id": 18,
    "title": "Зупинка водопостачання у районі",
    "category": "Комунальна послуга",
    "severity": 3,
    "createdAt": "2025-10-17T04:00:00Z",
    "location": { "lat": 50.4544, "lng": 30.5177 },
    "description": "Планові ремонтні роботи на водогоні. Водопостачання буде відновлено до 18:00."
  },
  {
    "id": 19,
    "title": "Мітинг біля міської ради",
    "category": "Громадський захід",
    "severity": 3,
    "createdAt": "2025-10-17T09:30:00Z",
    "location": { "lat": 50.4479, "lng": 30.536 },
    "description": "Група мешканців проводить мирний протест проти забудови парку. Присутня поліція."
  },
  {
    "id": 20,
    "title": "Несправність каналізації",
    "category": "Комунальна аварія",
    "severity": 3,
    "createdAt": "2025-10-17T08:40:00Z",
    "location": { "lat": 50.4444, "lng": 30.5288 },
    "description": "Утворився витік каналізаційних стоків. Роботи з ліквідації тривають."
  }
]
