[
  {
    "id": 101,
    "title": "Прорив труби на вул. Центральній",
    "category": "Комунальна аварія",
    "severity": 4,
    "createdAt": "2025-10-17T10:30:00Z",
    "location": { "lat": 50.4597, "lng": 30.6035 },
    "description": "Стався прорив магістральної труби холодного водопостачання. Рух транспорту частково обмежено."
  },
  {
    "id": 102,
    "title": "ДТП на перехресті",
    "category": "ДТП",
    "severity": 3,
    "createdAt": "2025-10-16T18:45:00Z",
    "location": { "lat": 50.4748, "lng": 30.5169 },
    "description": "Зіткнення двох легкових автомобілів. Постраждалих немає, але утворився великий затор."
  },
  {
    "id": 103,
    "title": "Пожежа у складському приміщенні",
    "category": "Пожежа",
    "severity": 5,
    "createdAt": "2025-10-17T02:15:00Z",
    "location": { "lat": 50.4905, "lng": 30.4552 },
    "description": "Загоряння на складі побутової хімії. На місці працюють 5 пожежних розрахунків."
  },
  {
    "id": 104,
    "title": "Акт вандалізму в парку",
    "category": "Вандалізм",
    "severity": 2,
    "createdAt": "2025-10-15T22:00:00Z",
    "location": { "lat": 50.4516, "lng": 30.5928 },
    "description": "Невідомі пошкодили лавки та сміттєві урни в центральному парку."
  },
  {
    "id": 105,
    "title": "Знеструмлення житлового кварталу",
    "category": "Енергопостачання",
    "severity": 3,
    "createdAt": "2025-10-17T06:45:00Z",
    "location": { "lat": 50.4101, "lng": 30.6271 },
    "description": "Без електроенергії залишились кілька будинків через аварію на підстанції. Роботи тривають."
  },
  {
    "id": 106,
    "title": "Падіння дерева на проїжджу частину",
    "category": "Перешкода на дорозі",
    "severity": 2,
    "createdAt": "2025-10-17T08:10:00Z",
    "location": { "lat": 50.5078, "lng": 30.4971 },
    "description": "Внаслідок сильного вітру дерево впало на дорогу, рух ускладнено в одному напрямку."
  },
  {
    "id": 107,
    "title": "Витік газу в житловому будинку",
    "category": "Газова аварія",
    "severity": 5,
    "createdAt": "2025-10-17T09:20:00Z",
    "location": { "lat": 50.4642, "lng": 30.486 },
    "description": "Мешканці повідомили про різкий запах газу. Будинок евакуйовано, працюють служби."
  },
  {
    "id": 108,
    "title": "Пожежа у приватному будинку",
    "category": "Пожежа",
    "severity": 4,
    "createdAt": "2025-10-16T23:55:00Z",
    "location": { "lat": 50.3842, "lng": 30.4911 },
    "description": "Займання сталося на кухні, пожежу ліквідовано до прибуття основних сил. Постраждалих немає."
  },
  {
    "id": 109,
    "title": "Затор через дорожні роботи",
    "category": "Транспорт",
    "severity": 2,
    "createdAt": "2025-10-17T07:15:00Z",
    "location": { "lat": 50.4491, "lng": 30.4603 },
    "description": "Через ремонт асфальтного покриття рух транспорту обмежено до однієї смуги."
  },
  {
    "id": 110,
    "title": "Поломка трамвая на маршруті №3",
    "category": "Громадський транспорт",
    "severity": 2,
    "createdAt": "2025-10-17T05:50:00Z",
    "location": { "lat": 50.4737, "lng": 30.5087 },
    "description": "Трамвай зупинився посеред маршруту. Рух тимчасово призупинено, працює технічна служба."
  },
  {
    "id": 111,
    "title": "Масове відключення інтернету",
    "category": "Зв'язок",
    "severity": 3,
    "createdAt": "2025-10-17T09:00:00Z",
    "location": { "lat": 50.5184, "lng": 30.4983 },
    "description": "У центральній частині міста зафіксовано перебої з інтернет-з’єднанням кількох провайдерів."
  },
  {
    "id": 112,
    "title": "Загроза підтоплення після зливи",
    "category": "Погодні умови",
    "severity": 4,
    "createdAt": "2025-10-16T20:30:00Z",
    "location": { "lat": 50.4186, "lng": 30.6295 },
    "description": "Внаслідок сильної зливи можливе підтоплення низинних районів. Служби чергують у посиленому режимі."
  },
  {
    "id": 113,
    "title": "Знайдено підозрілий пакет біля ТЦ",
    "category": "Безпека",
    "severity": 4,
    "createdAt": "2025-10-17T11:10:00Z",
    "location": { "lat": 50.4011, "lng": 30.621 },
    "description": "Територію навколо торгового центру тимчасово перекрито. Працюють вибухотехніки."
  },
  {
    "id": 114,
    "title": "Несправність світлофорів",
    "category": "Транспорт",
    "severity": 2,
    "createdAt": "2025-10-17T06:00:00Z",
    "location": { "lat": 50.4373, "lng": 30.5145 },
    "description": "Світлофори на перехресті не працюють через збої живлення. Рух регулюють поліцейські."
  },
  {
    "id": 115,
    "title": "Провал асфальту на дорозі",
    "category": "Комунальна аварія",
    "severity": 3,
    "createdAt": "2025-10-17T03:40:00Z",
    "location": { "lat": 50.4214, "lng": 30.4829 },
    "description": "На ділянці дороги утворилась яма діаметром близько 2 метрів. Рух частково обмежено."
  },
  {
    "id": 116,
    "title": "Непрацюючі ліфти у багатоповерхівці",
    "category": "Комунальна послуга",
    "severity": 2,
    "createdAt": "2025-10-16T21:30:00Z",
    "location": { "lat": 50.4792, "lng": 30.6553 },
    "description": "Через перебої з електроживленням ліфти у трьох під'їздах тимчасово зупинені."
  },
  {
    "id": 117,
    "title": "Зникнення дитини у районі Оболонь",
    "category": "Пошук людей",
    "severity": 5,
    "createdAt": "2025-10-17T11:25:00Z",
    "location": { "lat": 50.5118, "lng": 30.4989 },
    "description": "Поліція розшукує 8-річну дитину, яка вийшла з дому та не повернулась. Проводяться пошукові дії."
  },
  {
    "id": 118,
    "title": "Зупинка водопостачання у районі",
    "category": "Комунальна послуга",
    "severity": 3,
    "createdAt": "2025-10-17T04:00:00Z",
    "location": { "lat": 50.4561, "lng": 30.6107 },
    "description": "Планові ремонтні роботи на водогоні. Водопостачання буде відновлено до 18:00."
  },
  {
    "id": 119,
    "title": "Мітинг біля міської ради",
    "category": "Громадський захід",
    "severity": 3,
    "createdAt": "2025-10-17T09:30:00Z",
    "location": { "lat": 50.4503, "lng": 30.5242 },
    "description": "Група мешканців проводить мирний протест проти забудови парку. Присутня поліція."
  },
  {
    "id": 120,
    "title": "Несправність каналізації",
    "category": "Комунальна аварія",
    "severity": 3,
    "createdAt": "2025-10-17T08:40:00Z",
    "location": { "lat": 50.3937, "lng": 30.6244 },
    "description": "Утворився витік каналізаційних стоків. Роботи з ліквідації тривають."
  }
]
